{
  "code": 10452,
  "name": "경기저축은행",
  "branch": [
    {
      "longitude": 37.4794,
      "latitude": 126.878562,
      "name": "가산지점",
      "address": "[08507] 서울특별시 금천구 가산디지털1로 128, 2층 (가산동, STX V타워)"
    },
    {
      "longitude": 37.502152,
      "latitude": 127.026553,
      "name": "강남지점",
      "address": "[06182] 서울특별시 강남구 영동대로 421 삼탄빌딩 1층/10층"
    },
    {
      "longitude": 37.656022,
      "latitude": 127.060157,
      "name": "노원지점",
      "address": "[01689] 서울특별시 노원구 노해로 467, 1~2층 (상계동, 교보생명빌딩)"
    },
    {
      "longitude": 37.4917451727652,
      "latitude": 127.041846786088,
      "name": "도곡지점",
      "address": "[06292] 서울특별시 강남구 언주로30길21, 2층 (도곡동, 아카데미스위트)"
    },
    {
      "longitude": 37.5600763,
      "latitude": 126.8407783,
      "name": "마곡지점",
      "address": "[07631] 서울특별시 강서구 공항대로 200 (마곡동, 마곡지웰타워), 2층"
    },
    {
      "longitude": 37.5531325,
      "latitude": 126.9187819,
      "name": "마포지점",
      "address": "[04032] 서울특별시 마포구 양화로 127 (서교동)"
    },
    {
      "longitude": 37.5023386,
      "latitude": 126.9960318,
      "name": "반포지점",
      "address": "[06547] 서울특별시 서초구 반포대로 287, 5층 (반포동, 반포래미안퍼스티지중심상가)"
    },
    {
      "longitude": 37.5585043,
      "latitude": 126.9720901,
      "name": "서소문지점",
      "address": "[04515] 서울특별시 중구 서소문로 115(한산빌딩)"
    },
    {
      "longitude": 37.4916231,
      "latitude": 127.0144178,
      "name": "서초지점",
      "address": "[06620] 서울특별시 서초구 서초대로78길 5 (서초동)"
    },
    {
      "longitude": 37.5428582,
      "latitude": 127.0558577,
      "name": "성동지점",
      "address": "[04783] 서울시 성동구 성수이로20길 3(세종빌딩)"
    },
    {
      "longitude": 37.5241422,
      "latitude": 127.0276219,
      "name": "압구정지점",
      "address": "[06022] 서울특별시 강남구 논현로 878 1층, 3층 (신사동, 중산빌딩)"
    },
    {
      "longitude": 37.5258055,
      "latitude": 126.9266768,
      "name": "여의도지점",
      "address": "[07327] 서울특별시 영등포구 의사당대로 97 (여의도동)"
    },
    {
      "longitude": 37.5207073,
      "latitude": 126.9008659,
      "name": "영업부",
      "address": "[07242] 서울특별시 영등포구 은행로 14"
    },
    {
      "longitude": 37.5138699,
      "latitude": 127.0613278,
      "name": "잠실지점",
      "address": "[05510] 서울특별시 송파구 올림픽로 289, 1층 (신천동, 시그마타워)"
    },
    {
      "longitude": 37.5123872,
      "latitude": 127.0152776,
      "name": "잠원지점",
      "address": "[06530] 서울특별시 서초구 강남대로 565(잠원동)"
    },
    {
      "longitude": 37.5703475,
      "latitude": 126.9837524,
      "name": "종로지점",
      "address": "[03142] 서울시 종로구 율곡로 6 트윈트리타워 A동 1~2층"
    }
  ]
}
